{
"type": "FeatureCollection",
"name": "ClinicasSC",
"crs": { "type": "name", "properties": { "name": "urn:ogc:def:crs:OGC:1.3:CRS84" } },
"features": [
{ "type": "Feature", "properties": { "cat": 35, "NOMBRE": "CLINICA AGUAS ZARCAS", "TIPO": "C.C.S.S", "RECURSOS": "ND", "PROVINCIA": "ALAJUELA", "CANTON": "SAN CARLOS", "DISTRITO": "AGUAS ZARCAS" }, "geometry": { "type": "Point", "coordinates": [ -84.340499803448864, 10.37394904780076 ] } },
{ "type": "Feature", "properties": { "cat": 36, "NOMBRE": "CLINICA BOCA ARENAL", "TIPO": "C.C.S.S", "RECURSOS": "ND", "PROVINCIA": "ALAJUELA", "CANTON": "SAN CARLOS", "DISTRITO": "CUTRIS" }, "geometry": { "type": "Point", "coordinates": [ -84.478154962970123, 10.527487556762086 ] } },
{ "type": "Feature", "properties": { "cat": 37, "NOMBRE": "CLINICA LA FORTUNA", "TIPO": "C.C.S.S", "RECURSOS": "ND", "PROVINCIA": "ALAJUELA", "CANTON": "SAN CARLOS", "DISTRITO": "FORTUNA" }, "geometry": { "type": "Point", "coordinates": [ -84.646074391489989, 10.471659892170269 ] } },
{ "type": "Feature", "properties": { "cat": 38, "NOMBRE": "CLINICA PITAL", "TIPO": "C.C.S.S", "RECURSOS": "ND", "PROVINCIA": "ALAJUELA", "CANTON": "SAN CARLOS", "DISTRITO": "PITAL" }, "geometry": { "type": "Point", "coordinates": [ -84.272917599356106, 10.453042874353525 ] } },
{ "type": "Feature", "properties": { "cat": 39, "NOMBRE": "EBAIS CEDRAL CIUDAD QUESADA", "TIPO": "E.B.A.I.S", "RECURSOS": "ND", "PROVINCIA": "ALAJUELA", "CANTON": "SAN CARLOS", "DISTRITO": "QUESADA" }, "geometry": { "type": "Point", "coordinates": [ -84.436629768017582, 10.365910286591586 ] } },
{ "type": "Feature", "properties": { "cat": 40, "NOMBRE": "EBAIS SAN JUAN CIUDAD QUESADA", "TIPO": "E.B.A.I.S", "RECURSOS": "ND", "PROVINCIA": "ALAJUELA", "CANTON": "SAN CARLOS", "DISTRITO": "QUESADA" }, "geometry": { "type": "Point", "coordinates": [ -84.402854663978005, 10.342745014474946 ] } },
{ "type": "Feature", "properties": { "cat": 41, "NOMBRE": "EBAIS SAN MARTIN CIUDAD QUESADA", "TIPO": "E.B.A.I.S", "RECURSOS": "ND", "PROVINCIA": "ALAJUELA", "CANTON": "SAN CARLOS", "DISTRITO": "QUESADA" }, "geometry": { "type": "Point", "coordinates": [ -84.431164587537836, 10.326423139507492 ] } },
{ "type": "Feature", "properties": { "cat": 42, "NOMBRE": "CLINICA CIUDAD QUESADA", "TIPO": "C.C.S.S", "RECURSOS": "ND", "PROVINCIA": "ALAJUELA", "CANTON": "SAN CARLOS", "DISTRITO": "QUESADA" }, "geometry": { "type": "Point", "coordinates": [ -84.431164587537836, 10.326423139507492 ] } },
{ "type": "Feature", "properties": { "cat": 43, "NOMBRE": "CLINICA ALTAMIRITA", "TIPO": "C.C.S.S", "RECURSOS": "ND", "PROVINCIA": "ALAJUELA", "CANTON": "SAN CARLOS", "DISTRITO": "VENADO" }, "geometry": { "type": "Point", "coordinates": [ -84.749156597190748, 10.556154981142091 ] } },
{ "type": "Feature", "properties": { "cat": 44, "NOMBRE": "CLINICA VENECIA", "TIPO": "C.C.S.S", "RECURSOS": "ND", "PROVINCIA": "ALAJUELA", "CANTON": "SAN CARLOS", "DISTRITO": "VENECIA" }, "geometry": { "type": "Point", "coordinates": [ -84.273379081988054, 10.352711497373351 ] } },
{ "type": "Feature", "properties": { "cat": 283, "NOMBRE": "EBAIS SUCRE", "TIPO": "E.B.A.I.S", "RECURSOS": "ND", "PROVINCIA": "ALAJUELA", "CANTON": "SAN CARLOS", "DISTRITO": "QUESADA" }, "geometry": { "type": "Point", "coordinates": [ -84.430413832209894, 10.283341737900125 ] } },
{ "type": "Feature", "properties": { "cat": 288, "NOMBRE": "CLINICA SANTA ROSA", "TIPO": "C.C.S.S", "RECURSOS": "ND", "PROVINCIA": "ALAJUELA", "CANTON": "SAN CARLOS", "DISTRITO": "POCOSOL" }, "geometry": { "type": "Point", "coordinates": [ -84.528571640501681, 10.623305918759947 ] } },
{ "type": "Feature", "properties": { "cat": 289, "NOMBRE": "CLINICA MONTERREY", "TIPO": "C.C.S.S", "RECURSOS": "ND", "PROVINCIA": "ALAJUELA", "CANTON": "SAN CARLOS", "DISTRITO": "MONTERREY" }, "geometry": { "type": "Point", "coordinates": [ -84.661941446813657, 10.537956605943142 ] } }
]
}
